[
  {
    "address": "AMFI Arena",
    "address2": "Vesterveien 4",
    "city": "Arendal",
    "lat": 58.4596599,
    "lng": 8.763479199999999,
    "name": "Apotek 1 Svanen Arendal",
    "openingHoursWeekDay": "9:00-20:00",
    "openingHoursWeekEnd": "9:00-18:00",
    "zipCode": 4836
  },
  {
    "address": "Amfi Moss",
    "address2": "Dronningensgate 3-7",
    "city": "Moss",
    "lat": 59.436425,
    "lng": 10.665068,
    "name": "Apotek 1 Moss Sentrum",
    "openingHoursWeekDay": "9:00-20:00",
    "openingHoursWeekEnd": "9:00-18:00",
    "zipCode": 1530
  },
  {
    "address": "Amfi Os",
    "address2": "Prestegardskogen 2",
    "city": "Os",
    "lat": 60.202803,
    "lng": 5.456464,
    "name": "Apotek 1 Flåten",
    "openingHoursWeekDay": "10:00-20:00",
    "openingHoursWeekEnd": "10:00-18:00",
    "zipCode": 5210
  },
  {
    "address": "Amfisenteret Moa Øst",
    "address2": "Langelandsvegen 51",
    "city": "Ålesund",
    "lat": 62.4659016,
    "lng": 6.3562081,
    "name": "Apotek 1 Moa Gård",
    "openingHoursWeekDay": "10:00-20:00",
    "openingHoursWeekEnd": "10:00-18:00",
    "zipCode": 6010
  },
  {
    "address": "Arbeidergata 17",
    "address2": "Torgkvartalet",
    "city": "Mjøndalen",
    "lat": 59.749727,
    "lng": 10.012135,
    "name": "Apotek 1 Mjøndalen",
    "openingHoursWeekDay": "9:00-18:00",
    "openingHoursWeekEnd": "9:00-15:00",
    "zipCode": 3050
  },
  {
    "address": "Beddingen 3",
    "address2": "",
    "city": "Trondheim",
    "lat": 63.434779,
    "lng": 10.41437,
    "name": "Apotek 1 Solsiden",
    "openingHoursWeekDay": "9:00-21:00",
    "openingHoursWeekEnd": "10:00-18:00",
    "zipCode": 7042
  },
  {
    "address": "Bogstadveien 51",
    "address2": "",
    "city": "Oslo",
    "lat": 59.9288233,
    "lng": 10.7158722,
    "name": "Apotek 1 Sfinxen",
    "openingHoursWeekDay": "9:00-20:00",
    "openingHoursWeekEnd": "12:00-18:00",
    "zipCode": "0366"
  },
  {
    "address": "Dampsagveien 2",
    "address2": "",
    "city": "Lillestrøm",
    "lat": 59.9535626,
    "lng": 11.0410655,
    "name": "Apotek 1 Romerike Helsebygg",
    "openingHoursWeekDay": "9:00-18:00",
    "openingHoursWeekEnd": "10:00-18:00",
    "zipCode": 2000
  },
  {
    "address": "Farmandstorvet",
    "address2": "Fayes gate 7",
    "city": "Tønsberg",
    "lat": 59.269192,
    "lng": 10.4094471,
    "name": "Apotek 1 Hvalen Tønsberg",
    "openingHoursWeekDay": "9:00-20:00",
    "openingHoursWeekEnd": "10:00-18:00",
    "zipCode": 3110
  },
  {
    "address": "Gard Senter",
    "address2": "Nygårdsvegen 6",
    "city": "Haugesund",
    "lat": 59.42736249999999,
    "lng": 5.263455,
    "name": "Apotek 1 Gard",
    "openingHoursWeekDay": "9:00-17:00",
    "openingHoursWeekEnd": "10:00-15:00",
    "zipCode": 5515
  },
  {
    "address": "Gartnerveien 15",
    "address2": "",
    "city": "Stavanger",
    "lat": 58.9474998,
    "lng": 5.7394297,
    "name": "Apotek 1 Kilden",
    "openingHoursWeekDay": "10:00-20:00",
    "openingHoursWeekEnd": "10:00-18:00",
    "zipCode": 4016
  },
  {
    "address": "Grimstadgata 21",
    "address2": "",
    "city": "Oslo",
    "lat": 59.93830610000001,
    "lng": 10.7555159,
    "name": "Apotek 1 Sagene",
    "openingHoursWeekDay": "9:00-18:00",
    "openingHoursWeekEnd": "10:00-16:00",
    "zipCode": "0464"
  },
  {
    "address": "Hegnasletta 5",
    "address2": "",
    "city": "Sandefjord",
    "lat": 59.12837099999999,
    "lng": 10.2434077,
    "name": "Apotek 1 Indre Havn",
    "openingHoursWeekDay": "8:30-19:00",
    "openingHoursWeekEnd": "9:00-16:00",
    "zipCode": 3217
  },
  {
    "address": "Hovedgaten 35",
    "address2": "",
    "city": "Kopervik",
    "lat": 59.283825,
    "lng": 5.306769500000001,
    "name": "Apotek 1 Kopervik",
    "openingHoursWeekDay": "9:00-16:00",
    "openingHoursWeekEnd": "10:00-15:00",
    "zipCode": 4250
  },
  {
    "address": "Hovevegen 10",
    "address2": "",
    "city": "Sogndal",
    "lat": 61.232138,
    "lng": 7.10343,
    "name": "Apotek 1 Sogndal",
    "openingHoursWeekDay": "9:00-19:00",
    "openingHoursWeekEnd": "10:00-18:00",
    "zipCode": 6856
  },
  {
    "address": "Ing. Rybergsgt. 56A",
    "address2": "",
    "city": "Drammen",
    "lat": 59.75381509999999,
    "lng": 10.1373317,
    "name": "Apotek 1 Pålsøya",
    "openingHoursWeekDay": "10:00-18:00",
    "openingHoursWeekEnd": "10:00-16:00",
    "zipCode": 3024
  },
  {
    "address": "Jens Wilhelmsens gate 1",
    "address2": "",
    "city": "Kråkerøy",
    "lat": 59.21193039999999,
    "lng": 10.9272536,
    "name": "Apotek 1 Helsehuset Fredrikstad",
    "openingHoursWeekDay": "8:30-19:00",
    "openingHoursWeekEnd": "10:00-17:00",
    "zipCode": 1671
  },
  {
    "address": "Jernbanesvingen 6",
    "address2": "",
    "city": "Ski",
    "lat": 59.7175932,
    "lng": 10.8354264,
    "name": "Apotek 1 Ski Storsenter",
    "openingHoursWeekDay": "9:00-21:00",
    "openingHoursWeekEnd": "10:00-19:00",
    "zipCode": 1400
  },
  {
    "address": "Jernbaneveien 12",
    "address2": "",
    "city": "Flekkefjord",
    "lat": 58.2936421,
    "lng": 6.6657224,
    "name": "Apotek 1 Amfi Flekkefjord",
    "openingHoursWeekDay": "9:00-20:00",
    "openingHoursWeekEnd": "9:00-18:00",
    "zipCode": 4400
  },
  {
    "address": "Klokkersundvegen 2",
    "address2": "Hamremyra",
    "city": "Ålesund",
    "lat": 62.4666185,
    "lng": 6.246242199999999,
    "name": "Apotek 1 Klokkersundet",
    "openingHoursWeekDay": "9:00-17:00",
    "openingHoursWeekEnd": "10:00-15:00",
    "zipCode": 6015
  },
  {
    "address": "Kong Øysteins veg 5",
    "address2": "",
    "city": "Trondheim",
    "lat": 63.431136,
    "lng": 10.4508949,
    "name": "Apotek 1 Strindheim",
    "openingHoursWeekDay": "9:00-18:00",
    "openingHoursWeekEnd": "10:00-15:00",
    "zipCode": 7045
  },
  {
    "address": "Kongsveien 104",
    "address2": "",
    "city": "Oslo",
    "lat": 59.8803499,
    "lng": 10.7866644,
    "name": "Apotek 1 Holtet",
    "openingHoursWeekDay": "9:00-17:00",
    "openingHoursWeekEnd": "10:00-14:00",
    "zipCode": 1177
  },
  {
    "address": "Kremarvegen 10",
    "address2": "",
    "city": "Odda",
    "lat": 60.0680826,
    "lng": 6.5456892,
    "name": "Apotek 1 Odda",
    "openingHoursWeekDay": "9:00-17:00",
    "openingHoursWeekEnd": "9:00-15:00",
    "zipCode": 5750
  },
  {
    "address": "Krøgenes Næringspark",
    "address2": "Kystveien 244",
    "city": "Arendal",
    "lat": 58.4738747,
    "lng": 8.816023999999999,
    "name": "Apotek 1 Krøgenes",
    "openingHoursWeekDay": "9:00-18:00",
    "openingHoursWeekEnd": "10:00-15:00",
    "zipCode": 4841
  },
  {
    "address": "Longhammarvegen 27",
    "address2": "",
    "city": "Haugesund",
    "lat": 59.39476089999999,
    "lng": 5.3329119,
    "name": "Apotek 1 Amanda",
    "openingHoursWeekDay": "10:00-20:00",
    "openingHoursWeekEnd": "10:00-18:00",
    "zipCode": 5536
  },
  {
    "address": "Madlakrossen 9",
    "address2": "Varemottak 2",
    "city": "Hafrsfjord",
    "lat": 58.9525698,
    "lng": 5.680702399999999,
    "name": "Apotek 1 Hjorten Stavanger",
    "openingHoursWeekDay": "9:00-20:00",
    "openingHoursWeekEnd": "10:00-18:00",
    "zipCode": 4042
  },
  {
    "address": "Megasenteret",
    "address2": "",
    "city": "Melhus",
    "lat": 63.28586,
    "lng": 10.275696,
    "name": "Apotek 1 Melhus",
    "openingHoursWeekDay": "9:00-18:00",
    "openingHoursWeekEnd": "9:00-15:00",
    "zipCode": 7224
  },
  {
    "address": "Myrdalsvegen 2",
    "address2": "",
    "city": "Nyborg, Bergen",
    "lat": 60.46933929999999,
    "lng": 5.3211909,
    "name": "Apotek 1 Horisont",
    "openingHoursWeekDay": "10:00-21:00",
    "openingHoursWeekEnd": "10:00-18:00",
    "zipCode": 5130
  },
  {
    "address": "Målselvsenteret",
    "address2": "",
    "city": "Bardufoss",
    "lat": 69.0954443,
    "lng": 18.5980518,
    "name": "Apotek 1 Andselv",
    "openingHoursWeekDay": "9:00-18:00",
    "openingHoursWeekEnd": "10:00-16:00",
    "zipCode": 9325
  },
  {
    "address": "Mølla Storsenter",
    "address2": "Brugata 16",
    "city": "Brumunddal",
    "lat": 60.884567,
    "lng": 10.9439911,
    "name": "Apotek 1 Brumunddal",
    "openingHoursWeekDay": "9:00-19:00",
    "openingHoursWeekEnd": "9:00-18:00",
    "zipCode": 2380
  },
  {
    "address": "Nedre Enggate 6 A",
    "address2": "",
    "city": "Kristiansund N",
    "lat": 63.11080089999999,
    "lng": 7.730600600000001,
    "name": "Apotek 1 Løven Kristiansund",
    "openingHoursWeekDay": "9:00-17:00",
    "openingHoursWeekEnd": "10:00-14:00",
    "zipCode": 6509
  },
  {
    "address": "Niels Leuchs vei 50",
    "address2": "",
    "city": "Eiksmarka",
    "lat": 59.94740919999999,
    "lng": 10.6221158,
    "name": "Apotek 1 Eiksmarka",
    "openingHoursWeekDay": "10:00-20:00",
    "openingHoursWeekEnd": "10:00-18:00",
    "zipCode": 1359
  },
  {
    "address": "Norheim Senter",
    "address2": "Rådhusveien 6",
    "city": "Rissa",
    "lat": 63.5832182,
    "lng": 9.956429,
    "name": "Apotek 1 Rissa",
    "openingHoursWeekDay": "9:00-18:00",
    "openingHoursWeekEnd": "10:00-15:00",
    "zipCode": 7100
  },
  {
    "address": "Porsgrunnvegen 50",
    "address2": "",
    "city": "Skien",
    "lat": 59.1856974,
    "lng": 9.6150288,
    "name": "Apotek 1 Gråtenmoen",
    "openingHoursWeekDay": "9:00-18:00",
    "openingHoursWeekEnd": "10:00-15:00",
    "zipCode": 3733
  },
  {
    "address": "Roald Amundsens gate 28",
    "address2": "",
    "city": "Sarpsborg",
    "lat": 59.28399869999999,
    "lng": 11.1084726,
    "name": "Apotek 1 Bjørnen, Sarpsborg",
    "openingHoursWeekDay": "9:00-20:00",
    "openingHoursWeekEnd": "9:00-18:00",
    "zipCode": 1723
  },
  {
    "address": "Roseby Senter",
    "address2": "Lingedalsvegen 10",
    "city": "Molde",
    "lat": 62.739384,
    "lng": 7.178236,
    "name": "Apotek 1 Roseby",
    "openingHoursWeekDay": "10:00-15:30",
    "openingHoursWeekEnd": "10:00-15:30",
    "zipCode": 6415
  },
  {
    "address": "Rådhusgaten 22",
    "address2": "",
    "city": "Jørpeland",
    "lat": 59.02061450000001,
    "lng": 6.040058699999999,
    "name": "Apotek 1 Strand",
    "openingHoursWeekDay": "9:00-17:00",
    "openingHoursWeekEnd": "10:00-15:00",
    "zipCode": 4100
  },
  {
    "address": "Senterveien 8",
    "address2": "",
    "city": "Vestby",
    "lat": 59.60329400000001,
    "lng": 10.7422351,
    "name": "Apotek 1 Vestby Storsenter",
    "openingHoursWeekDay": "10:00-20:00",
    "openingHoursWeekEnd": "10:00-18:00",
    "zipCode": 1540
  },
  {
    "address": "Sjøsiden Senter",
    "address2": "Teatergata 6",
    "city": "Horten",
    "lat": 59.415169,
    "lng": 10.486247,
    "name": "Apotek 1 Løven Horten",
    "openingHoursWeekDay": "10:00-20:00",
    "openingHoursWeekEnd": "10:00-18:00",
    "zipCode": 3187
  },
  {
    "address": "Skårersletta 55",
    "address2": "",
    "city": "Lørenskog",
    "lat": 59.9215948,
    "lng": 10.9533785,
    "name": "Apotek 1 Skårersletta",
    "openingHoursWeekDay": "9:00-18:00",
    "openingHoursWeekEnd": "10:00-16:00",
    "zipCode": 1473
  },
  {
    "address": "Smidsrødveien 9",
    "address2": "",
    "city": "Nøtterøy",
    "lat": 59.252075,
    "lng": 10.418398,
    "name": "Apotek 1 Teie Torv",
    "openingHoursWeekDay": "10:00-18:00",
    "openingHoursWeekEnd": "9:00-16:00",
    "zipCode": 3120
  },
  {
    "address": "Smiegata 3",
    "address2": "",
    "city": "Gran",
    "lat": 60.35623409999999,
    "lng": 10.5719349,
    "name": "Apotek 1 Gran",
    "openingHoursWeekDay": "9:00-19:00",
    "openingHoursWeekEnd": "9:00-16:00",
    "zipCode": 2750
  },
  {
    "address": "Snarøyveien 55",
    "address2": "",
    "city": "Fornebu",
    "lat": 59.893639,
    "lng": 10.619933,
    "name": "Apotek 1 Fornebu",
    "openingHoursWeekDay": "10:00-20:00",
    "openingHoursWeekEnd": "9:00-18:00",
    "zipCode": 1364
  },
  {
    "address": "Solavegen 25",
    "address2": "Jærhagen",
    "city": "Kleppe",
    "lat": 58.77949040000001,
    "lng": 5.6264085,
    "name": "Apotek 1 Lerka",
    "openingHoursWeekDay": "9:00-20:00",
    "openingHoursWeekEnd": "9:00-18:00",
    "zipCode": 4352
  },
  {
    "address": "Storgata 115",
    "address2": "",
    "city": "Moelv",
    "lat": 60.92843329999999,
    "lng": 10.7013233,
    "name": "Apotek 1 Moelv",
    "openingHoursWeekDay": "9:00-17:00",
    "openingHoursWeekEnd": "9:00-15:00",
    "zipCode": 2390
  },
  {
    "address": "Storgata 18",
    "address2": "",
    "city": "Finnsnes",
    "lat": 69.22890389999999,
    "lng": 17.9796787,
    "name": "Apotek 1 Finnsnes",
    "openingHoursWeekDay": "9:00-16:30",
    "openingHoursWeekEnd": "10:00-14:00",
    "zipCode": 9300
  },
  {
    "address": "Storgata 26",
    "address2": "",
    "city": "Bodø",
    "lat": 67.283986,
    "lng": 14.3819517,
    "name": "Apotek 1 Tordenskiold",
    "openingHoursWeekDay": "8:30-17:00",
    "openingHoursWeekEnd": "10:00-15:00",
    "zipCode": 8006
  },
  {
    "address": "Storgata 28",
    "address2": "",
    "city": "Kongsberg",
    "lat": 59.67023140000001,
    "lng": 9.6516526,
    "name": "Apotek 1 Stortorvet",
    "openingHoursWeekDay": "10:00-20:00",
    "openingHoursWeekEnd": "10:00-18:00",
    "zipCode": 3611
  },
  {
    "address": "Storgata 49",
    "address2": "",
    "city": "Raufoss",
    "lat": 60.7288558,
    "lng": 10.6143279,
    "name": "Apotek 1 Raufoss",
    "openingHoursWeekDay": "9:00-20:00",
    "openingHoursWeekEnd": "10:00-18:00",
    "zipCode": 2830
  },
  {
    "address": "Stovner Senter 3",
    "address2": "",
    "city": "Oslo",
    "lat": 59.96229200000001,
    "lng": 10.924695,
    "name": "Apotek 1 Stovner",
    "openingHoursWeekDay": "10:00-21:00",
    "openingHoursWeekEnd": "10:00-19:00",
    "zipCode": "985"
  },
  {
    "address": "Strandgata 24",
    "address2": "",
    "city": "Sortland",
    "lat": 68.69412179999999,
    "lng": 15.4178093,
    "name": "Apotek 1 Sortland",
    "openingHoursWeekDay": "9:00-19:00",
    "openingHoursWeekEnd": "10:00-16:00",
    "zipCode": 8400
  },
  {
    "address": "Strandgaten 6",
    "address2": "",
    "city": "Bergen",
    "lat": 60.3938317,
    "lng": 5.3232253,
    "name": "Apotek 1 Svanen Bergen",
    "openingHoursWeekDay": "8:30-18:00",
    "openingHoursWeekEnd": "10:00-16:00",
    "zipCode": 5013
  },
  {
    "address": "Strøket 9",
    "address2": "",
    "city": "Asker",
    "lat": 59.835788,
    "lng": 10.433598,
    "name": "Apotek 1 Asker",
    "openingHoursWeekDay": "9:00-18:00",
    "openingHoursWeekEnd": "9:00-15:00",
    "zipCode": 1383
  },
  {
    "address": "Sørlandssenteret",
    "address2": "Barstølveien 31-35",
    "city": "Kristiansand S",
    "lat": 58.179416,
    "lng": 8.1342024,
    "name": "Apotek 1 Oktanten sørlandssenteret",
    "openingHoursWeekDay": "10:00-21:00",
    "openingHoursWeekEnd": "10:00-19:00",
    "zipCode": 4636
  },
  {
    "address": "Torggata 1",
    "address2": "",
    "city": "Sandefjord",
    "lat": 59.1305321,
    "lng": 10.2239356,
    "name": "Apotek 1 Nordstjernen Sandefjord",
    "openingHoursWeekDay": "8:30-17:00",
    "openingHoursWeekEnd": "9:00-15:00",
    "zipCode": 3210
  },
  {
    "address": "Vangsgata 42",
    "address2": "",
    "city": "Voss",
    "lat": 60.629111,
    "lng": 6.421691,
    "name": "Apotek 1 Voss",
    "openingHoursWeekDay": "9:00-17:00",
    "openingHoursWeekEnd": "10:00-15:00",
    "zipCode": 5700
  },
  {
    "address": "Vingnesgata 24",
    "address2": "",
    "city": "Lillehammer",
    "lat": 61.1059148,
    "lng": 10.4435933,
    "name": "Apotek 1 Vingnes",
    "openingHoursWeekDay": "9:00-17:00",
    "openingHoursWeekEnd": "10:00-15:00",
    "zipCode": 2608
  },
  {
    "address": "Vinterbro Senter",
    "address2": "Sjøskogenveien 7",
    "city": "Vinterbro",
    "lat": 59.73927459999999,
    "lng": 10.7705901,
    "name": "Apotek 1 Vinterbro",
    "openingHoursWeekDay": "10:00-21:00",
    "openingHoursWeekEnd": "9:00-18:00",
    "zipCode": 1407
  },
  {
    "address": "Brugata 11",
    "address2": "",
    "city": "Os",
    "lat": 60.185356,
    "lng": 5.470887,
    "name": "Apotek 1 Os",
    "openingHoursWeekDay": "9:00-18:00",
    "openingHoursWeekEnd": "9:00-15:00",
    "zipCode": 5200
  }
]
